{
  "members": [
    {
      "name": "Soluciones Tech S.A.",
      "address": "Av. Principal 123, Your City, YC 12345",
      "phone": "(01) 234-5678",
      "website": "https://solucionestech.example",
      "image": "member1.jpg",
      "membership": 3,
      "description": "Leading software development and IT consulting services for businesses of all sizes.",
      "category": "Technology",
      "hours": "Mon-Fri 8:00 AM - 6:00 PM"
    },
    {
      "name": "Cafetería La Plaza",
      "address": "Calle Central 45, Your City, YC 12345",
      "phone": "(01) 987-6543",
      "website": "https://cafeterialaplaza.example",
      "image": "member2.jpg",
      "membership": 2,
      "description": "Artisanal coffee shop and bakery featuring locally sourced ingredients and handmade pastries.",
      "category": "Food & Beverage",
      "hours": "Mon-Sun 6:30 AM - 9:00 PM"
    },
    {
      "name": "Arquitectos Unidos",
      "address": "Jr. Diseño 88, Your City, YC 12345",
      "phone": "(01) 345-6789",
      "website": "https://arquitectosunidos.example",
      "image": "member3.jpg",
      "membership": 1,
      "description": "Full-service architecture firm specializing in residential and commercial design projects.",
      "category": "Professional Services",
      "hours": "Mon-Fri 9:00 AM - 5:00 PM"
    },
    {
      "name": "Tienda Verde",
      "address": "Plaza Verde 12, Your City, YC 12345",
      "phone": "(01) 444-3333",
      "website": "https://tiendaverde.example",
      "image": "member4.jpg",
      "membership": 2,
      "description": "Eco-friendly products store offering sustainable alternatives for everyday living.",
      "category": "Retail",
      "hours": "Mon-Sat 10:00 AM - 8:00 PM, Sun 11:00 AM - 6:00 PM"
    },
    {
      "name": "Transporte Rápido",
      "address": "Av. Logística 7, Your City, YC 12345",
      "phone": "(01) 222-1111",
      "website": "https://transporterapido.example",
      "image": "member5.jpg",
      "membership": 3,
      "description": "Reliable transportation and courier services with same-day delivery options.",
      "category": "Logistics",
      "hours": "24/7 Emergency Services Available"
    },
    {
      "name": "Floristería Aurora",
      "address": "Calle Flores 10, Your City, YC 12345",
      "phone": "(01) 666-7777",
      "website": "https://floristeriaaurora.example",
      "image": "member6.jpg",
      "membership": 1,
      "description": "Floral arrangements and event decorations for all special occasions.",
      "category": "Retail",
      "hours": "Mon-Sat 8:00 AM - 7:00 PM, Sun 9:00 AM - 5:00 PM"
    },
    {
      "name": "Centro Fitness Active",
      "address": "Av. Salud 55, Your City, YC 12345",
      "phone": "(01) 555-8888",
      "website": "https://fitnessactive.example",
      "image": "member7.jpg",
      "membership": 2,
      "description": "Modern fitness center offering group classes, personal training, and wellness programs.",
      "category": "Health & Wellness",
      "hours": "Mon-Fri 5:00 AM - 11:00 PM, Weekends 6:00 AM - 9:00 PM"
    }
  ]
}